[
  {"code":"AK-01","name":"Alaska State Office","lat":61.2163,"lng":-149.9003,"hidden":false},
  {"code":"AR-01","name":"Arkansas State Office","lat":34.7465,"lng":-92.2896,"hidden":false},
  {"code":"AZ-01","name":"Rio Salado - Phoenix","lat":33.4012,"lng":-112.0733,"hidden":false},
  {"code":"AZ-02","name":"Appleton-Whittell","lat":31.6471,"lng":-110.5407,"hidden":false},
  {"code":"CA-01","name":"Richardson Bay","lat":37.8904,"lng":-122.4571,"hidden":false},
  {"code":"CA-02","name":"Salton Sea","lat":33.7225,"lng":-116.3747,"hidden":false},
  {"code":"CA-03","name":"Bobcat Ranch","lat":38.5263,"lng":-121.9913,"hidden":false},
  {"code":"CA-04","name":"Debs Park","lat":34.0834,"lng":-118.1912,"hidden":false},
  {"code":"CA-05","name":"Kern River Preserve","lat":35.6713,"lng":-118.2876,"hidden":false},
  {"code":"CA-06","name":"Starr Ranch Sanctuary","lat":33.6583,"lng":-117.5584,"hidden":false},
  {"code":"CA-07","name":"Wattis Sanctuary","lat":39.3638,"lng":-121.9969,"hidden":false},
  {"code":"CA-08","name":"Sacramento Office","lat":38.5767,"lng":-121.4933,"hidden":false},
  {"code":"CA-09","name":"California State Office Oakland HQ","lat":37.8044,"lng":-122.2711,"hidden":false},
  {"code":"CO-01","name":"Fort Collins","lat":40.5908,"lng":-105.0668,"hidden":false},
  {"code":"H1","name":"","lat":40.8676,"lng":-74.4143,"hidden":true},
  {"code":"CT-01","name":"Greenwich","lat":41.0534,"lng":-73.6582,"hidden":false},
  {"code":"CT-02","name":"Miles Wildlife Sanctuary","lat":41.8787,"lng":-73.4776,"hidden":false},
  {"code":"CT-03","name":"Sharon Center","lat":41.8748,"lng":-73.4712,"hidden":false},
  {"code":"CT-04","name":"Bent of the River","lat":41.4662,"lng":-73.2093,"hidden":false},
  {"code":"DC-01","name":"DC Office","lat":38.9027,"lng":-77.0421,"hidden":false},
  {"code":"FL-01","name":"Birds of Prey","lat":28.6275,"lng":-81.3631,"hidden":false},
  {"code":"FL-02","name":"Corkscrew Swamp","lat":26.3726,"lng":-81.5999,"hidden":false},
  {"code":"FL-03","name":"Tallahassee Conservation Office","lat":30.4518,"lng":-84.264,"hidden":false},
  {"code":"FL-04","name":"Everglades Research Station","lat":25.0097,"lng":-80.5228,"hidden":false},
  {"code":"FL-05","name":"Florida State Office - Miami","lat":25.8116,"lng":-80.1895,"hidden":false},
  {"code":"FL-06","name":"Coastal Island Sanctuaries","lat":27.9506,"lng":-82.4572,"hidden":false},
  {"code":"FL-07","name":"Lake Okeechobee Sanctuary","lat":27.4386,"lng":-81.1487,"hidden":false},
  {"code":"IL-01","name":"Great Lakes","lat":41.8827,"lng":-87.6362,"hidden":false},
  {"code":"LA-02","name":"Rainey Wildlife Sanctuary","lat":29.8744,"lng":-92.4032,"hidden":false},
  {"code":"MD-01","name":"Baltimore","lat":39.2904,"lng":-76.5621,"hidden":false},
  {"code":"ME-01","name":"Summer Seabird Restoration Program","lat":44.0176,"lng":-69.4258,"hidden":false},
  {"code":"MS-02","name":"Pascagoula River Center","lat":30.4135,"lng":-88.5356,"hidden":false},
  {"code":"MS-04","name":"Strawberry Plains Center","lat":34.7676,"lng":-89.4487,"hidden":false},
  {"code":"NC-02","name":"Pine Island Sanctuary","lat":36.376,"lng":-75.8302,"hidden":false},
  {"code":"NE-01","name":"Spring Creek Center","lat":40.7487,"lng":-96.8392,"hidden":false},
  {"code":"NE-03","name":"Rowe Sanctuary - Gibbon","lat":40.7554,"lng":-98.8447,"hidden":false},
  {"code":"NM-01","name":"Randall Davey","lat":35.687,"lng":-105.9253,"hidden":false},
  {"code":"NY-01","name":"National Headquarters","lat":40.7282,"lng":-74.0042,"hidden":false},
  {"code":"NY-02","name":"Montezuma Center","lat":43.0712,"lng":-76.7154,"hidden":false},
  {"code":"NY-03","name":"Theodore Roosevelt Sanctuary","lat":40.8676,"lng":-73.5318,"hidden":false},
  {"code":"NY-04","name":"Rheinstrom Hill","lat":42.0876,"lng":-73.6543,"hidden":false},
  {"code":"NY-05","name":"Constitution Marsh","lat":41.4198,"lng":-73.9615,"hidden":false},
  {"code":"NY-06","name":"New York State Office - Albany","lat":42.6526,"lng":-73.7562,"hidden":false},
  {"code":"OH-01","name":"Grange Insurance Audubon Center","lat":39.9612,"lng":-83.0021,"hidden":false},
  {"code":"PA-01","name":"Discovery Center Philadelphia","lat":39.9897,"lng":-75.1874,"hidden":false},
  {"code":"PA-02","name":"Pennsylvania State Center","lat":40.1237,"lng":-75.4327,"hidden":false},
  {"code":"SC-01","name":"Beidler Forest","lat":33.2115,"lng":-80.3959,"hidden":false},
  {"code":"SC-02","name":"Silver Bluff Sanctuary","lat":33.3154,"lng":-81.7876,"hidden":false},
  {"code":"TX-01","name":"Mitchell Lake","lat":29.3402,"lng":-98.4819,"hidden":false},
  {"code":"TX-02","name":"Trinity River","lat":32.7041,"lng":-96.718,"hidden":false},
  {"code":"TX-03","name":"Dogwood (Cedar Hill)","lat":32.5885,"lng":-97.0641,"hidden":false},
  {"code":"UT-01","name":"Saline Lakes / Gillmor","lat":40.7484,"lng":-111.9011,"hidden":false},
  {"code":"VT-01","name":"Vermont State Office","lat":44.327,"lng":-72.9867,"hidden":false},
  {"code":"WA-01","name":"Seward Park","lat":47.5509,"lng":-122.2627,"hidden":false},
  {"code":"SDJ","name":"Sol de Janeiro","class":"A","lat":40.7549,"lng":-73.984,"hidden":false},
  {"code":"LI","name":"Little Island","class":"A","lat":40.7417,"lng":-74.0119,"hidden":false},
  {"code":"BGC","name":"Black Girls Code","class":"A","lat":40.7128,"lng":-74.006,"hidden":false},
  {"code":"RRF","name":"Robert Rauschenberg Foundation","class":"A","lat":40.739,"lng":-74.007,"hidden":false},
  {"code":"TF","name":"2 x 4, Inc.","class":"A","lat":40.7178,"lng":-74.0027,"hidden":false},
  {"code":"ESNJ","name":"Easterseals New Jersey","class":"A","lat":40.2989,"lng":-74.521,"hidden":false},
  {"code":"PRH","name":"Penrose Hill, Ltd.","class":"A","lat":40.74,"lng":-73.99,"hidden":false},
  {"code":"FAIR","name":"Fair Harbor Clothing","class":"A","lat":40.721,"lng":-74.005,"hidden":false},
  {"code":"BWA","name":"Barlis Wedlick Architects, LLC.","class":"A","lat":40.739,"lng":-73.99,"hidden":false},
  {"code":"SNAI","name":"Supernatural AI","class":"A","lat":40.7128,"lng":-74.006,"hidden":false},
  {"code":"LOWE","name":"Lowe","class":"A","lat":40.7128,"lng":-74.006,"hidden":false},
  {"code":"LANN","name":"Lannan Impact Fund","class":"A","lat":35.687,"lng":-105.9378,"hidden":false},
  {"code":"MYTH","name":"Mythology","class":"A","lat":40.725,"lng":-74.002,"hidden":false},
  {"code":"ROD","name":"Studio Rodrigo","class":"A","lat":40.718,"lng":-73.998,"hidden":false},
  {"code":"SONIC","name":"Sonic Union","class":"A","lat":40.7505,"lng":-73.981,"hidden":false},
  {"code":"JLGF","name":"Jerome L. Greene Foundation","class":"A","lat":40.776,"lng":-73.977,"hidden":false},
  {"code":"RDC","name":"Rafael de Cardenas, Ltd","class":"A","lat":40.723,"lng":-73.995,"hidden":false},
  {"code":"CR","name":"Cinereach","class":"A","lat":40.72,"lng":-74.003,"hidden":false},
  {"code":"QOG","name":"Qognitive","class":"A","lat":40.7128,"lng":-74.006,"hidden":false},
  {"code":"CCAP","name":"Creative Capital","class":"A","lat":40.748,"lng":-73.993,"hidden":false},
  {"code":"PBCO","name":"Peanut Butter & Co.","class":"A","lat":40.73,"lng":-74,"hidden":false},
  {"code":"WCO","name":"Wert & Company Inc.","class":"A","lat":40.75,"lng":-73.98,"hidden":false},
  {"code":"AL","name":"Ashe Leandro, LLC","class":"B","lat":40.723,"lng":-73.993,"hidden":false},
  {"code":"ORRAA","name":"Ocean Risk and Resilience Action Alliance","class":"B","lat":40.7128,"lng":-74.006,"hidden":false},
  {"code":"H2","name":"","lat":40.72,"lng":-74.005,"hidden":true},
  {"code":"MKB","name":"Makerbot","class":"B","lat":40.69,"lng":-73.987,"hidden":false},
  {"code":"FES","name":"FES","class":"B","lat":40.7128,"lng":-74.006,"hidden":false},
  {"code":"BIO","name":"BioLite","class":"B","lat":40.705,"lng":-73.934,"hidden":false},
  {"code":"ICUS","name":"Innerchapter US","class":"B","lat":40.7128,"lng":-74.006,"hidden":false},
  {"code":"SDG","name":"SDG","class":"B","lat":40.7128,"lng":-74.006,"hidden":false},
  {"code":"PLNY","name":"Parents League of New York","class":"B","lat":40.774,"lng":-73.962,"hidden":false},
  {"code":"LBO","name":"The Leonard Bernstein Office, Inc.","class":"B","lat":40.756,"lng":-73.981,"hidden":false},
  {"code":"SCO","name":"Shahid / Kraus & Company","class":"B","lat":40.74,"lng":-73.99,"hidden":false},
  {"code":"VAI","name":"Van Alen Institute","class":"B","lat":40.738,"lng":-73.989,"hidden":false},
  {"code":"SAC","name":"Sage and Coombe Architects","class":"B","lat":40.719,"lng":-74.002,"hidden":false},
  {"code":"SOC","name":"Socrates Sculpture Park, Inc.","class":"B","lat":40.7686,"lng":-73.9366,"hidden":false},
  {"code":"JUDD","name":"Judd Foundation","class":"B","lat":40.725,"lng":-73.999,"hidden":false},
  {"code":"PEN","name":"Pensa","class":"B","lat":40.692,"lng":-73.989,"hidden":false},
  {"code":"CW","name":"Charity Water","class":"B","lat":40.718,"lng":-73.996,"hidden":false},
  {"code":"H3","name":"","lat":40.73,"lng":-74,"hidden":true},
  {"code":"DP","name":"Domino Park Conservancy LLC","class":"B","lat":40.714,"lng":-73.968,"hidden":false},
  {"code":"JXP","name":"Juxtapose","class":"B","lat":40.74,"lng":-73.99,"hidden":false},
  {"code":"BRM","name":"Bank Robber Music","class":"B","lat":40.72,"lng":-73.99,"hidden":false},
  {"code":"MEX","name":"Mexican Summer","class":"B","lat":40.722,"lng":-73.958,"hidden":false},
  {"code":"LEO","name":"Leong Leong LLC","class":"B","lat":40.718,"lng":-73.995,"hidden":false},
  {"code":"STUDIO","name":"Studio Group Luxury Interiors, Inc","class":"C","lat":40.74,"lng":-73.99,"hidden":false},
  {"code":"H4","name":"","lat":40.76,"lng":-73.97,"hidden":true},
  {"code":"JSM","name":"JSM Music, Inc.","class":"C","lat":40.745,"lng":-73.988,"hidden":false},
  {"code":"MELC","name":"Melcher","class":"C","lat":40.725,"lng":-74.005,"hidden":false},
  {"code":"AG","name":"Alexandre Gallery","class":"C","lat":40.774,"lng":-73.965,"hidden":false},
  {"code":"H5","name":"","lat":40.74,"lng":-73.99,"hidden":true},
  {"code":"BOND","name":"Bond Creative Management","class":"C","lat":40.74,"lng":-73.99,"hidden":false},
  {"code":"PM","name":"Peter Mensch Household","class":"C","lat":40.784,"lng":-73.9768,"hidden":false},
  {"code":"3F","name":"Three Furies Consulting","class":"C","lat":40.7128,"lng":-74.006,"hidden":false},
  {"code":"MELD","name":"MELD, LLC","class":"C","lat":40.7128,"lng":-74.006,"hidden":false},
  {"code":"BATT","name":"BATT","class":"C","lat":40.7128,"lng":-74.006,"hidden":false},
  {"code":"ELYS","name":"Elysium Health","class":"C","lat":40.728,"lng":-73.994,"hidden":false},
  {"code":"TMNTY","name":"TMNTY","class":"C","lat":40.7128,"lng":-74.006,"hidden":false},
  {"code":"H6","name":"","lat":40.77,"lng":-73.965,"hidden":true},
  {"code":"GKD","name":"The Gladys Krieble Delmas Foundation","class":"C","lat":40.76,"lng":-73.97,"hidden":false},
  {"code":"UD","name":"UD","class":"C","lat":40.7128,"lng":-74.006,"hidden":false},
  {"code":"H7","name":"","lat":40.74,"lng":-73.99,"hidden":true},
  {"code":"ACORA","name":"Acora Partners","class":"C","lat":40.75,"lng":-73.98,"hidden":false},
  {"code":"HI","name":"Harmony Labs","class":"C","lat":40.72,"lng":-73.995,"hidden":false},
  {"code":"PTN","name":"Potion Design","class":"C","lat":40.72,"lng":-73.99,"hidden":false},
  {"code":"PLP","name":"Pointed Leaf Press","class":"C","lat":40.74,"lng":-73.99,"hidden":false},
  {"code":"H8","name":"","lat":40.74,"lng":-73.99,"hidden":true},
  {"code":"PI","name":"Pembrooke & Ives","class":"C","lat":40.743,"lng":-74.005,"hidden":false},
  {"code":"BEE","name":"Buro Ehring Engineering P.C.","class":"C","lat":40.74,"lng":-73.99,"hidden":false},
  {"code":"TODA","name":"TODA New York","class":"C","lat":40.72,"lng":-73.99,"hidden":false},
  {"code":"MWNY","name":"MWNY LLC","class":"C","lat":40.7128,"lng":-74.006,"hidden":false},
  {"code":"AP","name":"AP","class":"C","lat":40.7128,"lng":-74.006,"hidden":false},
  {"code":"8PTS","name":"8 Point Studio, Inc.","class":"C","lat":40.72,"lng":-73.99,"hidden":false},
  {"code":"SSP","name":"SSP","class":"C","lat":40.7128,"lng":-74.006,"hidden":false},
  {"code":"GEIG","name":"Geig","class":"C","lat":40.7128,"lng":-74.006,"hidden":false},
  {"code":"DTE","name":"DTE Studio","class":"C","lat":40.72,"lng":-73.99,"hidden":false},
  {"code":"OPE","name":"Open","class":"C","lat":40.72,"lng":-73.99,"hidden":false},
  {"code":"H9","name":"","lat":40.76,"lng":-73.965,"hidden":true},
  {"code":"JF","name":"JF","class":"C","lat":40.7128,"lng":-74.006,"hidden":false},
  {"code":"H10","name":"","lat":40.73,"lng":-73.99,"hidden":true},
  {"code":"H11","name":"","lat":40.75,"lng":-73.98,"hidden":true},
  {"code":"MAP","name":"Multi-Arts Production Fund","class":"C","lat":40.74,"lng":-73.99,"hidden":false},
  {"code":"TSC","name":"TSC","class":"C","lat":40.7128,"lng":-74.006,"hidden":false},
  {"code":"CT","name":"Capture This","class":"C","lat":40.72,"lng":-73.99,"hidden":false},
  {"code":"H12","name":"","lat":40.73,"lng":-74.002,"hidden":true},
  {"code":"FLEA","name":"The Flea Theater, Inc.","class":"C","lat":40.717,"lng":-74.007,"hidden":false},
  {"code":"MEMO","name":"MEMO Productions","class":"C","lat":40.72,"lng":-73.99,"hidden":false},
  {"code":"MACH","name":"Machine IO","class":"C","lat":40.705,"lng":-73.99,"hidden":false},
  {"code":"H13","name":"","lat":40.72,"lng":-73.99,"hidden":true},
  {"code":"H14","name":"","lat":40.74,"lng":-73.99,"hidden":true},
  {"code":"FWFA","name":"FWFA","class":"C","lat":40.7128,"lng":-74.006,"hidden":false},
  {"code":"H15","name":"","lat":40.72,"lng":-73.99,"hidden":true},
  {"code":"DEN","name":"Denniston Hill","class":"C","lat":41.7,"lng":-74.45,"hidden":false},
  {"code":"HYPE","name":"Hypebeast Inc.","class":"C","lat":40.72,"lng":-73.995,"hidden":false},
  {"code":"EGG","name":"EGG","class":"C","lat":40.7128,"lng":-74.006,"hidden":false},
  {"code":"HFF","name":"Helen Frankenthaler Foundation","class":"C","lat":40.76,"lng":-73.97,"hidden":false},
  {"code":"PRIME","name":"Prime Studio","class":"C","lat":40.72,"lng":-73.99,"hidden":false},
  {"code":"SFP","name":"Salty Features","class":"C","lat":40.72,"lng":-73.99,"hidden":false},
  {"code":"CFTH","name":"Coalition for the Homeless","class":"C","lat":40.708,"lng":-74.008,"hidden":false},
  {"code":"LNF","name":"LeRoy Neiman Foundation","class":"C","lat":40.76,"lng":-73.98,"hidden":false},
  {"code":"LAND","name":"Landscape","class":"C","lat":40.72,"lng":-73.99,"hidden":false},
  {"code":"TW","name":"TW","class":"C","lat":40.7128,"lng":-74.006,"hidden":false},
  {"code":"FHL","name":"Friends of the High Line","class":"C","lat":40.7397,"lng":-74.0081,"hidden":false},
  {"code":"SHF","name":"SHF","class":"C","lat":40.7128,"lng":-74.006,"hidden":false},
  {"code":"HIVE","name":"Hive","class":"C","lat":40.72,"lng":-73.99,"hidden":false},
  {"code":"NML","name":"NML","class":"C","lat":40.7128,"lng":-74.006,"hidden":false},
  {"code":"RL","name":"RL","class":"C","lat":40.7128,"lng":-74.006,"hidden":false},
  {"code":"WFSN","name":"WorkFusion","class":"C","lat":40.706,"lng":-74.009,"hidden":false},
  {"code":"BBIO","name":"BBIO","class":"C","lat":40.7128,"lng":-74.006,"hidden":false},
  {"code":"H16","name":"","lat":40.75,"lng":-73.98,"hidden":true},
  {"code":"H17","name":"","lat":40.74,"lng":-73.99,"hidden":true},
  {"code":"SCA","name":"SCA","class":"C","lat":40.7128,"lng":-74.006,"hidden":false},
  {"code":"H18","name":"","lat":40.723,"lng":-73.995,"hidden":true},
  {"code":"IVA","name":"IVA","class":"C","lat":40.7128,"lng":-74.006,"hidden":false},
  {"code":"CADU","name":"Cadillac Uniform","lat":18.4655,"lng":-66.1057,"hidden":false},
  {"code":"GLBL","name":"Global","lat":51.5106,"lng":-0.13,"hidden":false},
  {"code":"NAS-UK","name":"National Audubon Society (UK)","lat":51.5072,"lng":-0.1276,"hidden":false},
  {"code":"NAS-MX","name":"National Audubon Society (Mexico)","lat":19.4326,"lng":-99.1332,"hidden":false},
  {"code":"ULTI","name":"Ultimaker","lat":52.0907,"lng":5.1214,"hidden":false},
  {"code":"NOE","name":"NOE","lat":51.5155,"lng":-0.0922,"hidden":false},
  {"code":"ICHK","name":"Innerchapter Hong Kong","lat":22.2783,"lng":114.1747,"hidden":false},
  {"code":"NAS-CO","name":"National Audubon Society (Colombia)","lat":4.711,"lng":-74.0721,"hidden":false},
  {"code":"SNUG","name":"Snug Harbor Cultural Center","lat":40.6437,"lng":-74.1029,"hidden":false},
  {"code":"GOV","name":"Governors Island","lat":40.6892,"lng":-74.0166,"hidden":false},
  {"code":"BBP","name":"Brooklyn Bridge Park","lat":40.6998,"lng":-73.9985,"hidden":false},
  {"code":"HRP","name":"Hudson River Park","lat":40.7036,"lng":-74.0166,"hidden":false},
  {"code":"CHRIS","name":"Chris","lat":40.7882,"lng":-73.9681,"hidden":false}
]
