[
  {
    "code": "TF",
    "name": "2 x 4, Inc.",
    "status": "Current",
    "hidden": false,
    "industry": "Design & Advertising",
    "subIndustry": "Branding",
    "url": "https://2x4.org",
    "lat": 40.7178,
    "lng": -74.0027
  },
  {
    "code": "TT",
    "name": "212Harakawa Inc.",
    "status": "Former",
    "hidden": false,
    "industry": "Design & Advertising",
    "subIndustry": "Graphic Design",
    "url": "https://twotwelve.com",
    "lat": 40.747194,
    "lng": -73.99577
  },
  {
    "code": "4B",
    "name": "4th Bin",
    "status": "Current",
    "hidden": false,
    "industry": "Logistics & Operations",
    "subIndustry": "Recycling",
    "url": "https://4thbin.com",
    "lat": 40.746759,
    "lng": -73.993623
  },
  {
    "code": "AAHC",
    "name": "AAH Construction Corporation",
    "status": "Former",
    "hidden": false,
    "industry": "Architecture & Design",
    "subIndustry": "Architecture",
    "url": "https://aahconstruction.com",
    "lat": 40.776524,
    "lng": -73.910114
  },
  {
    "code": "AP",
    "name": "Aubin Pictures",
    "status": "Current",
    "hidden": false,
    "industry": "Video & Post-Production",
    "subIndustry": "Video",
    "url": "https://aubinpictures.com",
    "lat": 40.720261,
    "lng": -73.999308
  },
  {
    "code": "BRM",
    "name": "Bank Robber Music",
    "status": "Current",
    "hidden": false,
    "industry": "Audio Production",
    "subIndustry": "Audio",
    "url": "https://bankrobbermusic.com",
    "lat": 40.719633,
    "lng": -74.00159
  },
  {
    "code": "H1",
    "name": "",
    "status": "Current",
    "hidden": true,
    "lat": 40.748235,
    "lng": -73.980812
  },
  {
    "code": "BWA",
    "name": "Barlis Wedlick Architects, LLC.",
    "status": "Current",
    "hidden": false,
    "industry": "Architecture & Design",
    "subIndustry": "Architecture",
    "url": "https://barliswedlick.com",
    "lat": 40.71206,
    "lng": -74.009523
  },
  {
    "code": "BATT",
    "name": "Battery Conservancy",
    "status": "Former",
    "hidden": false,
    "industry": "Parks & Recreation",
    "subIndustry": "Parks",
    "url": "https://thebattery.org",
    "lat": 40.703797,
    "lng": -74.011961
  },
  {
    "code": "BFAB",
    "name": "BFAB, LLC",
    "status": "Current",
    "hidden": false,
    "industry": "Arts & Culture",
    "subIndustry": "Arts",
    "url": "https://brantfoundation.org",
    "lat": 40.726247,
    "lng": -73.985648
  },
  {
    "code": "BIO",
    "name": "BioLite",
    "status": "Current",
    "hidden": false,
    "industry": "Product Design & Manufacturing",
    "subIndustry": "Product Design",
    "url": "https://bioliteenergy.com",
    "lat": 40.705,
    "lng": -73.934
  },
  {
    "code": "BGC",
    "name": "Black Girls Code",
    "status": "Current",
    "hidden": false,
    "industry": "Nonprofits",
    "subIndustry": "Non-Profit",
    "url": "https://wearebgc.org",
    "lat": 40.741836,
    "lng": -74.004336
  },
  {
    "code": "BOND",
    "name": "Bond Creative Management",
    "status": "Current",
    "hidden": false,
    "industry": "Professional Services",
    "subIndustry": "Recruiting",
    "url": "https://bondcreativemgmt.com",
    "lat": 40.725887,
    "lng": -73.993049
  },
  {
    "code": "BR",
    "name": "Buck's Rock Camp, Inc.",
    "status": "Current",
    "hidden": false,
    "industry": "Education",
    "subIndustry": "Education",
    "url": "https://bucksrockcamp.org",
    "lat": 41.21266,
    "lng": -73.009141
  },
  {
    "code": "CADU",
    "name": "Cadillac Uniform",
    "status": "Current",
    "hidden": false,
    "industry": "Retail & Hospitality",
    "subIndustry": "Retail",
    "url": "https://cadillacuniform.com",
    "lat": 18.344958,
    "lng": -66.168374
  },
  {
    "code": "CT",
    "name": "Capture This",
    "status": "Current",
    "hidden": false,
    "industry": "Arts & Culture",
    "subIndustry": "Photography",
    "url": "https://capturethisnyc.com",
    "lat": 41.6273,
    "lng": -75.7849
  },
  {
    "code": "CSA",
    "name": "Carbone Smolan Agency",
    "status": "Former",
    "hidden": false,
    "industry": "Design & Advertising",
    "subIndustry": "Branding",
    "url": "https://carbonesmolan.com",
    "lat": 41.011179,
    "lng": -73.91346
  },
  {
    "code": "CN",
    "name": "Charity Navigator",
    "status": "Former",
    "hidden": false,
    "industry": "Nonprofits",
    "subIndustry": "Non-Profit",
    "url": "https://charitynavigator.org",
    "lat": 40.896745,
    "lng": -74.093781
  },
  {
    "code": "H2",
    "name": "",
    "status": "Current",
    "hidden": true,
    "lat": 40.718,
    "lng": -73.996
  },
  {
    "code": "CR",
    "name": "Cinereach",
    "status": "Current",
    "hidden": false,
    "industry": "Video & Post-Production",
    "subIndustry": "Video",
    "url": "https://cinereach.org",
    "lat": 40.751915,
    "lng": -73.97553
  },
  {
    "code": "CO",
    "name": "co:collective",
    "status": "Current",
    "hidden": false,
    "industry": "Design & Advertising",
    "subIndustry": "Branding",
    "url": "https://cocollective.com",
    "lat": 40.745929,
    "lng": -73.994233
  },
  {
    "code": "CCAP",
    "name": "Creative Capital",
    "status": "Current",
    "hidden": false,
    "industry": "Nonprofits",
    "subIndustry": "Non-Profit",
    "url": "https://creative-capital.org",
    "lat": 40.748,
    "lng": -73.993
  },
  {
    "code": "H3",
    "name": "",
    "status": "Current",
    "hidden": true,
    "lat": 41.827044,
    "lng": -74.222527
  },
  {
    "code": "DP",
    "name": "Domino Park Conservancy LLC",
    "status": "Current",
    "hidden": false,
    "industry": "Parks & Recreation",
    "subIndustry": "Parks",
    "url": "https://twotreesny.com",
    "lat": 40.714,
    "lng": -73.968
  },
  {
    "code": "DTE",
    "name": "DTE Studio",
    "status": "Current",
    "hidden": false,
    "industry": "Arts & Culture",
    "subIndustry": "Photography",
    "url": "https://dtestudio.com",
    "lat": 40.748043,
    "lng": -73.991974
  },
  {
    "code": "ELYS",
    "name": "Elysium Health",
    "status": "Current",
    "hidden": false,
    "industry": "Healthcare & Medical",
    "subIndustry": "Healthcare",
    "url": "https://elysiumhealth.com",
    "lat": 40.728,
    "lng": -73.994
  },
  {
    "code": "H4",
    "name": "",
    "status": "Current",
    "hidden": true,
    "lat": 40.702617,
    "lng": -73.989442
  },
  {
    "code": "FAIR",
    "name": "Fair Harbor Clothing",
    "status": "Current",
    "hidden": false,
    "industry": "Retail & Hospitality",
    "subIndustry": "Fashion",
    "url": "https://fairharborclothing.com",
    "lat": 40.721,
    "lng": -74.005
  },
  {
    "code": "H5",
    "name": "",
    "status": "Current",
    "hidden": true,
    "lat": 40.722526,
    "lng": -74.001212
  },
  {
    "code": "H6",
    "name": "",
    "status": "Current",
    "hidden": true,
    "lat": 40.75118,
    "lng": -73.980296
  },
  {
    "code": "HAA",
    "name": "Harry Allen & Associates",
    "status": "Former",
    "hidden": false,
    "industry": "Product Design & Manufacturing",
    "subIndustry": "Product Design",
    "url": "https://harryallendesign.com",
    "lat": 40.729678,
    "lng": -73.98126
  },
  {
    "code": "HC",
    "name": "Heard City",
    "status": "Current",
    "hidden": false,
    "industry": "Audio Production",
    "subIndustry": "Audio",
    "url": "https://heardcity.com",
    "lat": 40.741046,
    "lng": -73.99142
  },
  {
    "code": "HYPE",
    "name": "Hypebeast Inc.",
    "status": "Current",
    "hidden": false,
    "industry": "Publishing & Media",
    "subIndustry": "Publishing",
    "url": "https://hypebeast.com",
    "lat": 40.71432,
    "lng": -73.993485
  },
  {
    "code": "IDD",
    "name": "Idriss Dermatology",
    "status": "Current",
    "hidden": false,
    "industry": "Healthcare & Medical",
    "subIndustry": "Healthcare",
    "url": "https://idrissderm.com",
    "lat": 40.753235,
    "lng": -73.984434
  },
  {
    "code": "ICUS",
    "name": "Innerchapter US",
    "status": "Current",
    "hidden": false,
    "industry": "Technology & Software",
    "subIndustry": "Technology",
    "url": "https://innerchapter.co",
    "lat": 37.911342,
    "lng": -122.066813
  },
  {
    "code": "JLGF",
    "name": "Jerome L. Greene Foundation",
    "status": "Current",
    "hidden": false,
    "industry": "Nonprofits",
    "subIndustry": "Non-Profit",
    "url": "https://jlgreene.org",
    "lat": 40.7766,
    "lng": -73.9749
  },
  {
    "code": "JSM",
    "name": "JSM Music, Inc.",
    "status": "Former",
    "hidden": false,
    "industry": "Audio Production",
    "subIndustry": "Audio",
    "url": "https://jsmmusic.com",
    "lat": 40.745,
    "lng": -73.988
  },
  {
    "code": "JUDD",
    "name": "Judd Foundation",
    "status": "Current",
    "hidden": false,
    "industry": "Arts & Culture",
    "subIndustry": "Arts",
    "url": "https://juddfoundation.org",
    "lat": 40.725,
    "lng": -73.999
  },
  {
    "code": "H7",
    "name": "",
    "status": "Current",
    "hidden": true,
    "lat": 40.723,
    "lng": -73.995
  },
  {
    "code": "H8",
    "name": "",
    "status": "Current",
    "hidden": true,
    "lat": 40.745808,
    "lng": -73.989434
  },
  {
    "code": "H9",
    "name": "",
    "status": "Current",
    "hidden": true,
    "lat": 40.738788,
    "lng": -73.992729
  },
  {
    "code": "LANN",
    "name": "Lannan Impact Fund",
    "status": "Current",
    "hidden": false,
    "industry": "Nonprofits",
    "subIndustry": "Non-Profit",
    "url": "https://lannan.org",
    "lat": 35.687,
    "lng": -105.9378
  },
  {
    "code": "H10",
    "name": "",
    "status": "Current",
    "hidden": true,
    "lat": 40.718181,
    "lng": -73.992629
  },
  {
    "code": "LEO",
    "name": "Leong Leong LLC",
    "status": "Current",
    "hidden": false,
    "industry": "Architecture & Design",
    "subIndustry": "Architecture",
    "url": "https://leong-leong.com",
    "lat": 40.718,
    "lng": -73.995
  },
  {
    "code": "LI",
    "name": "Little Island",
    "status": "Current",
    "hidden": false,
    "industry": "Parks & Recreation",
    "subIndustry": "Parks",
    "url": "https://littleisland.org",
    "lat": 40.7424,
    "lng": -74.0107
  },
  {
    "code": "LH",
    "name": "Longstead Holdings",
    "status": "Current",
    "hidden": false,
    "industry": "Financial Services",
    "subIndustry": "Finance",
    "url": "https://longsteadholdings.com",
    "lat": 25.772688,
    "lng": -80.187542
  },
  {
    "code": "LOWE",
    "name": "Lowe Law Group",
    "status": "Current",
    "hidden": false,
    "industry": "Professional Services",
    "subIndustry": "Legal",
    "url": "https://lowelawgroup.com",
    "lat": 41.162,
    "lng": -111.954
  },
  {
    "code": "MKB",
    "name": "Makerbot",
    "status": "Current",
    "hidden": false,
    "industry": "Product Design & Manufacturing",
    "subIndustry": "Product Design",
    "url": "https://makerbot.com",
    "lat": 40.746581,
    "lng": -73.9883
  },
  {
    "code": "H11",
    "name": "",
    "status": "Current",
    "hidden": true,
    "lat": 40.745808,
    "lng": -73.989434
  },
  {
    "code": "H12",
    "name": "",
    "status": "Current",
    "hidden": true,
    "lat": 40.768086,
    "lng": -73.967015
  },
  {
    "code": "MELC",
    "name": "Melcher",
    "status": "Current",
    "hidden": false,
    "industry": "Publishing & Media",
    "subIndustry": "Publishing",
    "url": "https://melcher.com",
    "lat": 40.725,
    "lng": -74.005
  },
  {
    "code": "MEX",
    "name": "Mexican Summer",
    "status": "Current",
    "hidden": false,
    "industry": "Audio Production",
    "subIndustry": "Audio",
    "url": "https://mexicansummer.com",
    "lat": 40.722,
    "lng": -73.958
  },
  {
    "code": "MYTH",
    "name": "Mythology",
    "status": "Current",
    "hidden": false,
    "industry": "Design & Advertising",
    "subIndustry": "Branding",
    "url": "https://mythology.com",
    "lat": 40.725,
    "lng": -74.002
  },
  {
    "code": "H13",
    "name": "",
    "status": "Current",
    "hidden": true,
    "lat": 40.7158,
    "lng": -74.0063
  },
  {
    "code": "NAS",
    "name": "National Audubon Society",
    "status": "Current",
    "hidden": false,
    "industry": "Parks & Recreation",
    "subIndustry": "Parks",
    "url": "https://audubon.org",
    "lat": 40.7282,
    "lng": -74.0042
  },
  {
    "code": "H14",
    "name": "",
    "status": "Current",
    "hidden": true,
    "lat": 41.805877,
    "lng": -73.121032
  },
  {
    "code": "OPE",
    "name": "Open",
    "status": "Current",
    "hidden": false,
    "industry": "Design & Advertising",
    "subIndustry": "Branding",
    "url": "https://notclosed.com",
    "lat": 40.72745,
    "lng": -74.005139
  },
  {
    "code": "H15",
    "name": "",
    "status": "Current",
    "hidden": true,
    "lat": 40.743707,
    "lng": -73.997251
  },
  {
    "code": "PLNY",
    "name": "Parents League of New York",
    "status": "Current",
    "hidden": false,
    "industry": "Nonprofits",
    "subIndustry": "Non-Profit",
    "url": "https://parentsleague.org",
    "lat": 40.774,
    "lng": -73.962
  },
  {
    "code": "PBCO",
    "name": "Peanut Butter & Co.",
    "status": "Current",
    "hidden": false,
    "industry": "Retail & Hospitality",
    "subIndustry": "Food Services",
    "url": "https://ilovepeanutbutter.com",
    "lat": 40.764332,
    "lng": -73.983431
  },
  {
    "code": "PI",
    "name": "Pembrooke & Ives",
    "status": "Current",
    "hidden": false,
    "industry": "Architecture & Design",
    "subIndustry": "Interior Design",
    "url": "https://pembrookeandives.com",
    "lat": 40.743,
    "lng": -74.005
  },
  {
    "code": "PRH",
    "name": "Penrose Hill, Ltd.",
    "status": "Current",
    "hidden": false,
    "industry": "Retail & Hospitality",
    "subIndustry": "Retail",
    "url": "https://penrosehill.com",
    "lat": 38.223783,
    "lng": -122.272508
  },
  {
    "code": "PEN",
    "name": "Pensa",
    "status": "Current",
    "hidden": false,
    "industry": "Product Design & Manufacturing",
    "subIndustry": "Product Design",
    "url": "https://pensa.co",
    "lat": 40.692,
    "lng": -73.989
  },
  {
    "code": "H16",
    "name": "",
    "status": "Current",
    "hidden": true,
    "lat": 40.774,
    "lng": -73.962
  },
  {
    "code": "H17",
    "name": "",
    "status": "Current",
    "hidden": true,
    "lat": 37.7749,
    "lng": -122.4194
  },
  {
    "code": "PLP",
    "name": "Pointed Leaf Press",
    "status": "Former",
    "hidden": false,
    "industry": "Publishing & Media",
    "subIndustry": "Publishing",
    "url": "https://pointedleafpress.com",
    "lat": 40.71868,
    "lng": -73.998803
  },
  {
    "code": "QOG",
    "name": "Qognitive",
    "status": "Current",
    "hidden": false,
    "industry": "Technology & Software",
    "subIndustry": "Technology",
    "url": "https://qognitive.io",
    "lat": 25.801751,
    "lng": -80.1257
  },
  {
    "code": "RDC",
    "name": "Rafael de Cardenas, Ltd",
    "status": "Current",
    "hidden": false,
    "industry": "Architecture & Design",
    "subIndustry": "Interior Design",
    "url": "https://rafaeldecardenas.com",
    "lat": 40.723,
    "lng": -73.995
  },
  {
    "code": "RA",
    "name": "Red Antler, LLC",
    "status": "Former",
    "hidden": false,
    "industry": "Design & Advertising",
    "subIndustry": "Branding",
    "url": "https://redantler.com",
    "lat": 40.704195,
    "lng": -73.98665
  },
  {
    "code": "RRF",
    "name": "Robert Rauschenberg Foundation",
    "status": "Current",
    "hidden": false,
    "industry": "Nonprofits",
    "subIndustry": "Non-Profit",
    "url": "https://rauschenbergfoundation.org",
    "lat": 40.739,
    "lng": -74.007
  },
  {
    "code": "H19",
    "name": "",
    "status": "Current",
    "hidden": true,
    "lat": 40.749,
    "lng": -73.98
  },
  {
    "code": "SAC",
    "name": "Sage and Coombe Architects",
    "status": "Current",
    "hidden": false,
    "industry": "Architecture & Design",
    "subIndustry": "Architecture",
    "url": "https://sageandcoombe.com",
    "lat": 40.719,
    "lng": -74.002
  },
  {
    "code": "SCO",
    "name": "Shahid / Kraus & Company",
    "status": "Current",
    "hidden": false,
    "industry": "Design & Advertising",
    "subIndustry": "Advertising",
    "url": "https://shahidkraus.com",
    "lat": 40.718809,
    "lng": -74.002574
  },
  {
    "code": "SOC",
    "name": "Socrates Sculpture Park, Inc.",
    "status": "Current",
    "hidden": false,
    "industry": "Parks & Recreation",
    "subIndustry": "Parks",
    "url": "https://socratessculpturepark.org",
    "lat": 40.7686,
    "lng": -73.9366
  },
  {
    "code": "H20",
    "name": "",
    "status": "Current",
    "hidden": true,
    "lat": 40.7549,
    "lng": -73.984
  },
  {
    "code": "SONIC",
    "name": "Sonic Union",
    "status": "Current",
    "hidden": false,
    "industry": "Audio Production",
    "subIndustry": "Audio",
    "url": "https://sonicunion.com",
    "lat": 40.7505,
    "lng": -73.981
  },
  {
    "code": "SSP",
    "name": "Spring Street Properties LLC",
    "status": "Current",
    "hidden": false,
    "industry": "Professional Services",
    "subIndustry": "Real Estate",
    "url": "https://stray.works",
    "lat": 41.441882,
    "lng": -74.416686
  },
  {
    "code": "SPR",
    "name": "Springfield Funds",
    "status": "Current",
    "hidden": false,
    "industry": "Financial Services",
    "subIndustry": "Finance",
    "url": "https://springfieldfunds.com",
    "lat": 40.726755,
    "lng": -74.005531
  },
  {
    "code": "H21",
    "name": "",
    "status": "Current",
    "hidden": true,
    "lat": 40.774321,
    "lng": -73.963763
  },
  {
    "code": "SDG",
    "name": "Stephens Design Group, Inc.",
    "status": "Current",
    "hidden": false,
    "industry": "Product Design & Manufacturing",
    "subIndustry": "Product Design",
    "url": "https://bradleystephens.com",
    "lat": 40.751223,
    "lng": -74.004484
  },
  {
    "code": "ROD",
    "name": "Studio Rodrigo",
    "status": "Current",
    "hidden": false,
    "industry": "Product Design & Manufacturing",
    "subIndustry": "Product Design",
    "url": "https://studiorodrigo.com",
    "lat": 40.718,
    "lng": -73.998
  },
  {
    "code": "H22",
    "name": "",
    "status": "Current",
    "hidden": true,
    "lat": 40.7373,
    "lng": -73.9841
  },
  {
    "code": "TMNTY",
    "name": "Techmenity",
    "status": "Current",
    "hidden": false,
    "industry": "Technology & Software",
    "subIndustry": "Technology",
    "url": "https://techmenity.com",
    "lat": 40.743588,
    "lng": -73.993336
  },
  {
    "code": "FLEA",
    "name": "The Flea Theater, Inc.",
    "status": "Former",
    "hidden": false,
    "industry": "Arts & Culture",
    "subIndustry": "Arts",
    "url": "https://theflea.org",
    "lat": 40.717,
    "lng": -74.007
  },
  {
    "code": "IVA",
    "name": "The Iva Agency",
    "status": "Former",
    "hidden": false,
    "industry": "Design & Advertising",
    "subIndustry": "Advertising",
    "url": "https://theivaagency.com",
    "lat": 40.674294,
    "lng": -73.979674
  },
  {
    "code": "LBO",
    "name": "The Leonard Bernstein Office, Inc.",
    "status": "Current",
    "hidden": false,
    "industry": "Audio Production",
    "subIndustry": "Audio",
    "url": "https://leonardbernstein.com",
    "lat": 40.756,
    "lng": -73.981
  },
  {
    "code": "DEK",
    "name": "The Willem de Kooning Foundation",
    "status": "Former",
    "hidden": false,
    "industry": "Arts & Culture",
    "subIndustry": "Arts",
    "url": "https://dekooning.org",
    "lat": 40.768521,
    "lng": -73.967899
  },
  {
    "code": "YCNYC",
    "name": "The Yale Club of New York City",
    "status": "Former",
    "hidden": false,
    "industry": "Retail & Hospitality",
    "subIndustry": "Hospitality",
    "url": "https://yaleclubnyc.org",
    "lat": 40.753942,
    "lng": -73.977358
  },
  {
    "code": "3F",
    "name": "Three Furies Consulting",
    "status": "Former",
    "hidden": false,
    "industry": "Professional Services",
    "subIndustry": "Consulting",
    "url": "https://threefuries.com",
    "lat": 40.7185,
    "lng": -73.9898
  },
  {
    "code": "H23",
    "name": "",
    "status": "Current",
    "hidden": true,
    "lat": 44.4833,
    "lng": -64.2667
  },
  {
    "code": "TOBIN",
    "name": "Tobin & Sons Moving and Storage, Inc.",
    "status": "Former",
    "hidden": false,
    "industry": "Logistics & Operations",
    "subIndustry": "Logistics",
    "url": "https://tobinscientific.com",
    "lat": 42.571185,
    "lng": -70.883237
  },
  {
    "code": "TSC",
    "name": "Tribeca Skin Center",
    "status": "Current",
    "hidden": false,
    "industry": "Healthcare & Medical",
    "subIndustry": "Healthcare",
    "url": "https://tribecaskincenter.com",
    "lat": 40.719813,
    "lng": -74.003898
  },
  {
    "code": "ULTIMAKE",
    "name": "UltiMaker",
    "status": "Former",
    "hidden": false,
    "industry": "Technology & Software",
    "subIndustry": "Technology",
    "url": "https://ultimaker.com",
    "lat": 52.090701,
    "lng": 5.121563
  },
  {
    "code": "UD",
    "name": "UnionDocs",
    "status": "Current",
    "hidden": false,
    "industry": "Nonprofits",
    "subIndustry": "Non-Profit",
    "url": "https://uniondocs.org",
    "lat": 40.708324,
    "lng": -73.914943
  },
  {
    "code": "VAI",
    "name": "Van Alen Institute",
    "status": "Current",
    "hidden": false,
    "industry": "Nonprofits",
    "subIndustry": "Non-Profit",
    "url": "https://vanalen.org",
    "lat": 40.738,
    "lng": -73.989
  },
  {
    "code": "WCO",
    "name": "Wert & Company Inc.",
    "status": "Current",
    "hidden": false,
    "industry": "Professional Services",
    "subIndustry": "Consulting",
    "url": "https://wertco.com",
    "lat": 40.719633,
    "lng": -74.00159
  },
  {
    "code": "H24",
    "name": "",
    "status": "Current",
    "hidden": true,
    "lat": 40.743978,
    "lng": -73.683857
  },
  {
    "code": "WFSN",
    "name": "WorkFusion",
    "status": "Former",
    "hidden": false,
    "industry": "Financial Services",
    "subIndustry": "Finance",
    "url": "https://workfusion.com",
    "lat": 40.706,
    "lng": -74.009
  },
  {
    "code": "AFHS",
    "name": "Achievement First East Brooklyn High School",
    "status": "Former",
    "hidden": false,
    "industry": "Education",
    "subIndustry": "Education",
    "url": "https://achievementfirst.org"
  },
  {
    "code": "AND",
    "name": "And Partners",
    "status": "Former",
    "hidden": false,
    "industry": "Design & Advertising",
    "subIndustry": "Graphic Design",
    "url": "https://andpartnersny.com",
    "lat": 40.740746,
    "lng": -73.985474
  },
  {
    "code": "BFA",
    "name": "Billy Farrell Agency",
    "status": "Former",
    "hidden": false,
    "industry": "Arts & Culture",
    "subIndustry": "Photography",
    "url": "https://bfa.com",
    "lat": 40.739893,
    "lng": -73.991628
  },
  {
    "code": "BRAND",
    "name": "Brandgenuity LLC",
    "status": "Former",
    "hidden": false,
    "industry": "Design & Advertising",
    "subIndustry": "Branding",
    "url": "https://brandgenuity.com",
    "lat": 40.755906,
    "lng": -74.000532
  },
  {
    "code": "BBP",
    "name": "Brooklyn Bridge Park",
    "status": "Former",
    "hidden": false,
    "industry": "Parks & Recreation",
    "subIndustry": "Parks",
    "url": "https://brooklynbridgepark.org",
    "lat": 40.693942,
    "lng": -73.999248
  },
  {
    "code": "BH",
    "name": "BuroHappold Consulting Engineers",
    "status": "Former",
    "hidden": false,
    "industry": "Architecture & Design",
    "subIndustry": "Architecture",
    "url": "https://burohappold.com",
    "lat": 40.713882,
    "lng": -73.993029
  },
  {
    "code": "CADRE",
    "name": "Cadre",
    "status": "Former",
    "hidden": false,
    "industry": "Financial Services",
    "subIndustry": "Finance",
    "url": "https://cadre.com",
    "lat": 40.724425,
    "lng": -73.995779
  },
  {
    "code": "CNRY",
    "name": "Canary Connect, Inc.",
    "status": "Former",
    "hidden": false,
    "industry": "Technology & Software",
    "subIndustry": "Technology",
    "url": "https://canary.is",
    "lat": 40.751838,
    "lng": -73.975049
  },
  {
    "code": "CAC",
    "name": "Craig & Company LLC",
    "status": "Former",
    "hidden": false,
    "industry": "Design & Advertising",
    "subIndustry": "Advertising",
    "url": "https://craigandco.com",
    "lat": 41.892555,
    "lng": -87.627857
  },
  {
    "code": "DJI",
    "name": "DJI",
    "status": "Former",
    "hidden": false,
    "industry": "Technology & Software",
    "subIndustry": "Technology",
    "url": "https://dji.com",
    "lat": 40.726192,
    "lng": -73.996037
  },
  {
    "code": "ESNJ",
    "name": "Easterseals New Jersey",
    "status": "Former",
    "hidden": false,
    "industry": "Nonprofits",
    "subIndustry": "Non-Profit",
    "url": "https://nj.easterseals.com",
    "lat": 40.2989,
    "lng": -74.521
  },
  {
    "code": "ERAD",
    "name": "Elizabeth Roberts Architecture & Design",
    "status": "Former",
    "hidden": false,
    "industry": "Architecture & Design",
    "subIndustry": "Architecture",
    "url": "https://elizabethroberts.com",
    "lat": 40.672979,
    "lng": -73.990798
  },
  {
    "code": "H25",
    "name": "",
    "status": "Former",
    "hidden": true,
    "lat": 40.688906,
    "lng": -73.994764
  },
  {
    "code": "FAB",
    "name": "fab.com",
    "status": "Former",
    "hidden": false,
    "industry": "Technology & Software",
    "subIndustry": "Technology",
    "url": "https://fab.com",
    "lat": 40.731131,
    "lng": -74.008072
  },
  {
    "code": "H26",
    "name": "",
    "status": "Former",
    "hidden": true,
    "lat": 40.725651,
    "lng": -74.004916
  },
  {
    "code": "JSA",
    "name": "Jane Smith Agency",
    "status": "Former",
    "hidden": false,
    "industry": "Design & Advertising",
    "subIndustry": "Branding",
    "url": "https://janesmithagency.com",
    "lat": 34.090801,
    "lng": -118.324599
  },
  {
    "code": "H27",
    "name": "",
    "status": "Former",
    "hidden": true,
    "lat": 40.723,
    "lng": -73.995
  },
  {
    "code": "JIGSAW",
    "name": "Jigsaw Productions",
    "status": "Former",
    "hidden": false,
    "industry": "Video & Post-Production",
    "subIndustry": "Video",
    "url": "https://jigsawprods.com",
    "lat": 40.706196,
    "lng": -74.012891
  },
  {
    "code": "JMPW",
    "name": "JMP Wood",
    "status": "Former",
    "hidden": false,
    "industry": "Product Design & Manufacturing",
    "subIndustry": "Product Design",
    "url": "https://jmpwood.com",
    "lat": 40.650931,
    "lng": -73.910239
  },
  {
    "code": "KM",
    "name": "Kinder Modern",
    "status": "Former",
    "hidden": false,
    "industry": "Arts & Culture",
    "subIndustry": "Arts",
    "url": "https://kindermodern.com",
    "lat": 40.717775,
    "lng": -74.004034
  },
  {
    "code": "GDRCH",
    "name": "M Goodrich Company LLC",
    "status": "Former",
    "hidden": false,
    "industry": "Professional Services",
    "subIndustry": "Real Estate",
    "url": "https://goodrich.nyc",
    "lat": 40.748793,
    "lng": -73.994543
  },
  {
    "code": "III",
    "name": "m ss ng p eces",
    "status": "Former",
    "hidden": false,
    "industry": "Video & Post-Production",
    "subIndustry": "Video",
    "url": "https://mssngpeces.com",
    "lat": 40.728639,
    "lng": -73.953473
  },
  {
    "code": "MIA",
    "name": "Magazzino NYC",
    "status": "Former",
    "hidden": false,
    "industry": "Arts & Culture",
    "subIndustry": "Arts",
    "url": "https://olnickspanu.com",
    "lat": 40.76228,
    "lng": -73.962332
  },
  {
    "code": "H28",
    "name": "",
    "status": "Former",
    "hidden": true,
    "lat": 40.558488,
    "lng": -111.936711
  },
  {
    "code": "MN",
    "name": "Modellus Novus",
    "status": "Former",
    "hidden": false,
    "industry": "Architecture & Design",
    "subIndustry": "Architecture",
    "url": "https://mndpc.com",
    "lat": 40.7124,
    "lng": -74.0083
  },
  {
    "code": "NW",
    "name": "NeedWire",
    "status": "Former",
    "hidden": false,
    "industry": "Technology & Software",
    "subIndustry": "Technology",
    "url": "https://needwire.com",
    "lat": 40.749541,
    "lng": -73.981424
  },
  {
    "code": "SMR",
    "name": "Rafaj Group",
    "status": "Former",
    "hidden": false,
    "industry": "Design & Advertising",
    "subIndustry": "Branding",
    "url": "https://rafaj.com",
    "lat": 40.759646,
    "lng": -73.969978
  },
  {
    "code": "RCO",
    "name": "RCO Color and Finishing",
    "status": "Former",
    "hidden": false,
    "industry": "Video & Post-Production",
    "subIndustry": "Video",
    "url": "https://rco.tv",
    "lat": 40.7092,
    "lng": -74.0084
  },
  {
    "code": "RAC",
    "name": "RoAndCo",
    "status": "Former",
    "hidden": false,
    "industry": "Design & Advertising",
    "subIndustry": "Branding",
    "url": "https://roandcostudio.com",
    "lat": 40.719134,
    "lng": -73.996919
  },
  {
    "code": "SOMAD",
    "name": "SoMad Art Gallery",
    "status": "Former",
    "hidden": false,
    "industry": "Arts & Culture",
    "subIndustry": "Arts",
    "url": "https://somad.nyc",
    "lat": 40.740698,
    "lng": -73.987719
  },
  {
    "code": "STAR",
    "name": "Starfish Company",
    "status": "Former",
    "hidden": false,
    "industry": "Design & Advertising",
    "subIndustry": "Branding",
    "url": "https://starfishco.com",
    "lat": 40.741262,
    "lng": -73.991138
  },
  {
    "code": "SNAI",
    "name": "Supernatural AI",
    "status": "Former",
    "hidden": false,
    "industry": "Design & Advertising",
    "subIndustry": "Advertising",
    "url": "https://gosupernatural.ai",
    "lat": 40.722703,
    "lng": -73.997515
  },
  {
    "code": "FGI",
    "name": "The Friends of Governors Island",
    "status": "Former",
    "hidden": false,
    "industry": "Nonprofits",
    "subIndustry": "Non-Profit",
    "url": "https://govisland.com",
    "lat": 40.701695,
    "lng": -74.011875
  },
  {
    "code": "LOD",
    "name": "The Lodge",
    "status": "Former",
    "hidden": false,
    "industry": "Retail & Hospitality",
    "subIndustry": "Hospitality",
    "url": "https://thelodge.com",
    "lat": 40.729865,
    "lng": -73.992931
  },
  {
    "code": "TTC",
    "name": "The Thomas Collective, LLC",
    "status": "Former",
    "hidden": false,
    "industry": "Design & Advertising",
    "subIndustry": "Advertising",
    "url": "https://thethomascollective.com",
    "lat": 40.745533,
    "lng": -73.989163
  },
  {
    "code": "TMMD",
    "name": "Todd McNiff, MD",
    "status": "Former",
    "hidden": false,
    "industry": "Healthcare & Medical",
    "subIndustry": "Healthcare",
    "url": "https://toddmcniff.com",
    "lat": 40.728009,
    "lng": -73.993577
  },
  {
    "code": "TGI",
    "name": "Trust for Governors Island",
    "status": "Former",
    "hidden": false,
    "industry": "Parks & Recreation",
    "subIndustry": "Parks",
    "url": "https://govisland.org",
    "lat": 40.701695,
    "lng": -74.011875
  },
  {
    "code": "H29",
    "name": "",
    "status": "Former",
    "hidden": true,
    "lat": 40.694837,
    "lng": -73.967103
  },
  {
    "code": "EBHS",
    "name": "Achievement First East Brooklyn High School",
    "status": "Inactive",
    "hidden": false,
    "industry": "Education",
    "subIndustry": "Education",
    "url": "https://achievementfirst.org",
    "lat": 40.672247,
    "lng": -73.893894
  },
  {
    "code": "ASMBL",
    "name": "Assembly OSM, Inc.",
    "status": "Inactive",
    "hidden": false,
    "industry": "Architecture & Design",
    "subIndustry": "Architecture",
    "url": "https://assemblyosm.com",
    "lat": 40.705769,
    "lng": -74.009966
  },
  {
    "code": "BA",
    "name": "Blue Apron",
    "status": "Inactive",
    "hidden": false,
    "industry": "Retail & Hospitality",
    "subIndustry": "Food Services",
    "url": "https://blueapron.com",
    "lat": 40.707874,
    "lng": -74.00856
  },
  {
    "code": "BWAY",
    "name": "bway.net, Inc.",
    "status": "Inactive",
    "hidden": false,
    "industry": "Technology & Software",
    "subIndustry": "Technology",
    "url": "https://bway.net",
    "lat": 40.719633,
    "lng": -74.00159
  },
  {
    "code": "H30",
    "name": "",
    "status": "Inactive",
    "hidden": true,
    "lat": 40.751716,
    "lng": -73.982088
  },
  {
    "code": "H31",
    "name": "",
    "status": "Inactive",
    "hidden": true
  },
  {
    "code": "GGS",
    "name": "Greater Good Studio LLC",
    "status": "Inactive",
    "hidden": false,
    "industry": "Professional Services",
    "subIndustry": "Consulting",
    "url": "https://greatergoodstudio.com",
    "lat": 41.931804,
    "lng": -87.72138
  },
  {
    "code": "H32",
    "name": "",
    "status": "Inactive",
    "hidden": true,
    "lat": 37.73754,
    "lng": -122.479545
  },
  {
    "code": "JS",
    "name": "JaegerSloan",
    "status": "Inactive",
    "hidden": false,
    "industry": "Design & Advertising",
    "subIndustry": "Graphic Design",
    "url": "https://jaegersloan.com",
    "lat": 40.718156,
    "lng": -74.001339
  },
  {
    "code": "JUUL",
    "name": "JUUL Labs, Inc",
    "status": "Inactive",
    "hidden": false,
    "industry": "Retail & Hospitality",
    "subIndustry": "Retail",
    "url": "https://juul.com",
    "lat": 37.760872,
    "lng": -122.412048
  },
  {
    "code": "MBQ",
    "name": "Managed by Q",
    "status": "Inactive",
    "hidden": false,
    "industry": "Technology & Software",
    "subIndustry": "Technology",
    "url": "https://managedbyq.com",
    "lat": 40.725651,
    "lng": -74.004916
  },
  {
    "code": "H33",
    "name": "",
    "status": "Inactive",
    "hidden": true,
    "lat": 40.736147,
    "lng": -74.004196
  },
  {
    "code": "MMS",
    "name": "Michael Moran Photography, Inc.",
    "status": "Inactive",
    "hidden": false,
    "industry": "Arts & Culture",
    "subIndustry": "Photography",
    "url": "https://moranstudio.com",
    "lat": 40.676896,
    "lng": -73.993658
  },
  {
    "code": "MDLS",
    "name": "Models.com, Inc.",
    "status": "Inactive",
    "hidden": false,
    "industry": "Retail & Hospitality",
    "subIndustry": "Fashion",
    "url": "https://models.com",
    "lat": 40.695822,
    "lng": -73.989978
  },
  {
    "code": "NOE",
    "name": "Noe & Associates",
    "status": "Inactive",
    "hidden": false,
    "industry": "Design & Advertising",
    "subIndustry": "Branding",
    "url": "https://noeassociates.com",
    "lat": 40.723909,
    "lng": -74.000741
  },
  {
    "code": "OSC",
    "name": "Oscar Insurance",
    "status": "Inactive",
    "hidden": false,
    "industry": "Healthcare & Medical",
    "subIndustry": "Healthcare",
    "url": "https://hioscar.com",
    "lat": 40.724425,
    "lng": -73.995779
  },
  {
    "code": "PTN",
    "name": "Potion Design",
    "status": "Inactive",
    "hidden": false,
    "industry": "Design & Advertising",
    "subIndustry": "Advertising",
    "url": "https://potiondesign.com",
    "lat": 40.698585,
    "lng": -73.971148
  },
  {
    "code": "PMD",
    "name": "Poulin + Morris Inc",
    "status": "Inactive",
    "hidden": false,
    "industry": "Design & Advertising",
    "subIndustry": "Graphic Design",
    "url": "https://poulinmorris.com",
    "lat": 41.830034,
    "lng": -73.762184
  },
  {
    "code": "SHCC",
    "name": "Snug Harbor Cultural Center",
    "status": "Inactive",
    "hidden": false,
    "industry": "Arts & Culture",
    "subIndustry": "Arts",
    "url": "https://snug-harbor.org",
    "lat": 40.644827,
    "lng": -74.100918
  },
  {
    "code": "24W40",
    "name": "Sonic 24W40, LLC",
    "status": "Inactive",
    "hidden": false,
    "industry": "Audio Production",
    "subIndustry": "Audio",
    "url": "https://jfosound.com",
    "lat": 40.752475,
    "lng": -73.982632
  },
  {
    "code": "SPLC",
    "name": "Splice",
    "status": "Inactive",
    "hidden": false,
    "industry": "Audio Production",
    "subIndustry": "Audio",
    "url": "https://splice.com",
    "lat": 40.739034,
    "lng": -73.987451
  },
  {
    "code": "BFASC",
    "name": "The Brant Foundation Art Study Center",
    "status": "Inactive",
    "hidden": false,
    "industry": "Arts & Culture",
    "subIndustry": "Arts",
    "url": "https://brantfoundation.org",
    "lat": 41.132212,
    "lng": -73.637928
  },
  {
    "code": "AVP",
    "name": "The New York City Anti-Violence Project",
    "status": "Inactive",
    "hidden": false,
    "industry": "Nonprofits",
    "subIndustry": "Non-Profit",
    "url": "https://avp.org",
    "lat": 40.7106,
    "lng": -74.0078
  },
  {
    "code": "TSPK",
    "name": "TrialSpark, Inc.",
    "status": "Inactive",
    "hidden": false,
    "industry": "Healthcare & Medical",
    "subIndustry": "Biotech",
    "url": "https://trialspark.com",
    "lat": 40.748118,
    "lng": -73.983959
  },
  {
    "code": "UNQK",
    "name": "Unqork",
    "status": "Inactive",
    "hidden": false,
    "industry": "Technology & Software",
    "subIndustry": "Technology",
    "url": "https://unqork.com",
    "lat": 40.737894,
    "lng": -73.992328
  },
  {
    "code": "VMG",
    "name": "Vector Media Group",
    "status": "Inactive",
    "hidden": false,
    "industry": "Design & Advertising",
    "subIndustry": "Advertising",
    "url": "https://vectormediagroup.com",
    "lat": 40.740458,
    "lng": -73.991137
  },
  {
    "code": "WORK",
    "name": "Work Order",
    "status": "Inactive",
    "hidden": false,
    "industry": "Design & Advertising",
    "subIndustry": "Branding",
    "url": "https://work-order.co",
    "lat": 40.716022,
    "lng": -73.992976
  },
  {
    "code": "AK-01",
    "name": "Alaska State Office",
    "status": "Current",
    "hidden": false,
    "lat": 61.2163,
    "lng": -149.9003,
    "mapOnly": true
  },
  {
    "code": "AR-01",
    "name": "Arkansas State Office",
    "status": "Current",
    "hidden": false,
    "lat": 34.7465,
    "lng": -92.2896,
    "mapOnly": true
  },
  {
    "code": "AZ-01",
    "name": "Rio Salado - Phoenix",
    "status": "Current",
    "hidden": false,
    "lat": 33.4012,
    "lng": -112.0733,
    "mapOnly": true
  },
  {
    "code": "AZ-02",
    "name": "Appleton-Whittell",
    "status": "Current",
    "hidden": false,
    "lat": 31.6471,
    "lng": -110.5407,
    "mapOnly": true
  },
  {
    "code": "CA-01",
    "name": "Richardson Bay",
    "status": "Current",
    "hidden": false,
    "lat": 37.8904,
    "lng": -122.4571,
    "mapOnly": true
  },
  {
    "code": "CA-02",
    "name": "Salton Sea",
    "status": "Current",
    "hidden": false,
    "lat": 33.7225,
    "lng": -116.3747,
    "mapOnly": true
  },
  {
    "code": "CA-03",
    "name": "Bobcat Ranch",
    "status": "Current",
    "hidden": false,
    "lat": 38.5263,
    "lng": -121.9913,
    "mapOnly": true
  },
  {
    "code": "CA-04",
    "name": "Debs Park",
    "status": "Current",
    "hidden": false,
    "lat": 34.0834,
    "lng": -118.1912,
    "mapOnly": true
  },
  {
    "code": "CA-05",
    "name": "Kern River Preserve",
    "status": "Current",
    "hidden": false,
    "lat": 35.6713,
    "lng": -118.2876,
    "mapOnly": true
  },
  {
    "code": "CA-06",
    "name": "Starr Ranch Sanctuary",
    "status": "Current",
    "hidden": false,
    "lat": 33.6583,
    "lng": -117.5584,
    "mapOnly": true
  },
  {
    "code": "CA-07",
    "name": "Wattis Sanctuary",
    "status": "Current",
    "hidden": false,
    "lat": 39.3638,
    "lng": -121.9969,
    "mapOnly": true
  },
  {
    "code": "CA-08",
    "name": "Sacramento Office",
    "status": "Current",
    "hidden": false,
    "lat": 38.5767,
    "lng": -121.4933,
    "mapOnly": true
  },
  {
    "code": "CA-09",
    "name": "California State Office Oakland HQ",
    "status": "Current",
    "hidden": false,
    "lat": 37.8044,
    "lng": -122.2711,
    "mapOnly": true
  },
  {
    "code": "CO-01",
    "name": "Fort Collins",
    "status": "Current",
    "hidden": false,
    "lat": 40.5908,
    "lng": -105.0668,
    "mapOnly": true
  },
  {
    "code": "H34",
    "name": "",
    "status": "Current",
    "hidden": true,
    "lat": 40.8676,
    "lng": -74.4143,
    "mapOnly": true
  },
  {
    "code": "CT-01",
    "name": "Greenwich",
    "status": "Current",
    "hidden": false,
    "lat": 41.0534,
    "lng": -73.6582,
    "mapOnly": true
  },
  {
    "code": "CT-02",
    "name": "Miles Wildlife Sanctuary",
    "status": "Current",
    "hidden": false,
    "lat": 41.8787,
    "lng": -73.4776,
    "mapOnly": true
  },
  {
    "code": "CT-03",
    "name": "Sharon Center",
    "status": "Current",
    "hidden": false,
    "lat": 41.8748,
    "lng": -73.4712,
    "mapOnly": true
  },
  {
    "code": "CT-04",
    "name": "Bent of the River",
    "status": "Current",
    "hidden": false,
    "lat": 41.4662,
    "lng": -73.2093,
    "mapOnly": true
  },
  {
    "code": "DC-01",
    "name": "DC Office",
    "status": "Current",
    "hidden": false,
    "lat": 38.9027,
    "lng": -77.0421,
    "mapOnly": true
  },
  {
    "code": "FL-01",
    "name": "Birds of Prey",
    "status": "Current",
    "hidden": false,
    "lat": 28.6275,
    "lng": -81.3631,
    "mapOnly": true
  },
  {
    "code": "FL-02",
    "name": "Corkscrew Swamp",
    "status": "Current",
    "hidden": false,
    "lat": 26.3726,
    "lng": -81.5999,
    "mapOnly": true
  },
  {
    "code": "FL-03",
    "name": "Tallahassee Conservation Office",
    "status": "Current",
    "hidden": false,
    "lat": 30.4518,
    "lng": -84.264,
    "mapOnly": true
  },
  {
    "code": "FL-04",
    "name": "Everglades Research Station",
    "status": "Current",
    "hidden": false,
    "lat": 25.0097,
    "lng": -80.5228,
    "mapOnly": true
  },
  {
    "code": "FL-05",
    "name": "Florida State Office - Miami",
    "status": "Current",
    "hidden": false,
    "lat": 25.8116,
    "lng": -80.1895,
    "mapOnly": true
  },
  {
    "code": "FL-06",
    "name": "Coastal Island Sanctuaries",
    "status": "Current",
    "hidden": false,
    "lat": 27.9506,
    "lng": -82.4572,
    "mapOnly": true
  },
  {
    "code": "FL-07",
    "name": "Lake Okeechobee Sanctuary",
    "status": "Current",
    "hidden": false,
    "lat": 27.4386,
    "lng": -81.1487,
    "mapOnly": true
  },
  {
    "code": "IL-01",
    "name": "Great Lakes",
    "status": "Current",
    "hidden": false,
    "lat": 41.8827,
    "lng": -87.6362,
    "mapOnly": true
  },
  {
    "code": "LA-02",
    "name": "Rainey Wildlife Sanctuary",
    "status": "Current",
    "hidden": false,
    "lat": 29.8744,
    "lng": -92.4032,
    "mapOnly": true
  },
  {
    "code": "MD-01",
    "name": "Baltimore",
    "status": "Current",
    "hidden": false,
    "lat": 39.2904,
    "lng": -76.5621,
    "mapOnly": true
  },
  {
    "code": "ME-01",
    "name": "Summer Seabird Restoration Program",
    "status": "Current",
    "hidden": false,
    "lat": 44.0176,
    "lng": -69.4258,
    "mapOnly": true
  },
  {
    "code": "MS-02",
    "name": "Pascagoula River Center",
    "status": "Current",
    "hidden": false,
    "lat": 30.4135,
    "lng": -88.5356,
    "mapOnly": true
  },
  {
    "code": "MS-04",
    "name": "Strawberry Plains Center",
    "status": "Current",
    "hidden": false,
    "lat": 34.7676,
    "lng": -89.4487,
    "mapOnly": true
  },
  {
    "code": "NC-02",
    "name": "Pine Island Sanctuary",
    "status": "Current",
    "hidden": false,
    "lat": 36.376,
    "lng": -75.8302,
    "mapOnly": true
  },
  {
    "code": "NE-01",
    "name": "Spring Creek Center",
    "status": "Current",
    "hidden": false,
    "lat": 40.7487,
    "lng": -96.8392,
    "mapOnly": true
  },
  {
    "code": "NE-03",
    "name": "Rowe Sanctuary - Gibbon",
    "status": "Current",
    "hidden": false,
    "lat": 40.7554,
    "lng": -98.8447,
    "mapOnly": true
  },
  {
    "code": "NM-01",
    "name": "Randall Davey",
    "status": "Current",
    "hidden": false,
    "lat": 35.687,
    "lng": -105.9253,
    "mapOnly": true
  },
  {
    "code": "NY-01",
    "name": "National Headquarters",
    "status": "Current",
    "hidden": false,
    "lat": 40.7282,
    "lng": -74.0042,
    "mapOnly": true
  },
  {
    "code": "NY-02",
    "name": "Montezuma Center",
    "status": "Current",
    "hidden": false,
    "lat": 43.0712,
    "lng": -76.7154,
    "mapOnly": true
  },
  {
    "code": "NY-03",
    "name": "Theodore Roosevelt Sanctuary",
    "status": "Current",
    "hidden": false,
    "lat": 40.8676,
    "lng": -73.5318,
    "mapOnly": true
  },
  {
    "code": "NY-04",
    "name": "Rheinstrom Hill",
    "status": "Current",
    "hidden": false,
    "lat": 42.0876,
    "lng": -73.6543,
    "mapOnly": true
  },
  {
    "code": "NY-05",
    "name": "Constitution Marsh",
    "status": "Current",
    "hidden": false,
    "lat": 41.4198,
    "lng": -73.9615,
    "mapOnly": true
  },
  {
    "code": "NY-06",
    "name": "New York State Office - Albany",
    "status": "Current",
    "hidden": false,
    "lat": 42.6526,
    "lng": -73.7562,
    "mapOnly": true
  },
  {
    "code": "OH-01",
    "name": "Grange Insurance Audubon Center",
    "status": "Current",
    "hidden": false,
    "lat": 39.9612,
    "lng": -83.0021,
    "mapOnly": true
  },
  {
    "code": "PA-01",
    "name": "Discovery Center Philadelphia",
    "status": "Current",
    "hidden": false,
    "lat": 39.9897,
    "lng": -75.1874,
    "mapOnly": true
  },
  {
    "code": "PA-02",
    "name": "Pennsylvania State Center",
    "status": "Current",
    "hidden": false,
    "lat": 40.1237,
    "lng": -75.4327,
    "mapOnly": true
  },
  {
    "code": "SC-01",
    "name": "Beidler Forest",
    "status": "Current",
    "hidden": false,
    "lat": 33.2115,
    "lng": -80.3959,
    "mapOnly": true
  },
  {
    "code": "SC-02",
    "name": "Silver Bluff Sanctuary",
    "status": "Current",
    "hidden": false,
    "lat": 33.3154,
    "lng": -81.7876,
    "mapOnly": true
  },
  {
    "code": "TX-01",
    "name": "Mitchell Lake",
    "status": "Current",
    "hidden": false,
    "lat": 29.3402,
    "lng": -98.4819,
    "mapOnly": true
  },
  {
    "code": "TX-02",
    "name": "Trinity River",
    "status": "Current",
    "hidden": false,
    "lat": 32.7041,
    "lng": -96.718,
    "mapOnly": true
  },
  {
    "code": "TX-03",
    "name": "Dogwood (Cedar Hill)",
    "status": "Current",
    "hidden": false,
    "lat": 32.5885,
    "lng": -97.0641,
    "mapOnly": true
  },
  {
    "code": "UT-01",
    "name": "Saline Lakes / Gillmor",
    "status": "Current",
    "hidden": false,
    "lat": 40.7484,
    "lng": -111.9011,
    "mapOnly": true
  },
  {
    "code": "VT-01",
    "name": "Vermont State Office",
    "status": "Current",
    "hidden": false,
    "lat": 44.327,
    "lng": -72.9867,
    "mapOnly": true
  },
  {
    "code": "WA-01",
    "name": "Seward Park",
    "status": "Current",
    "hidden": false,
    "lat": 47.5509,
    "lng": -122.2627,
    "mapOnly": true
  },
  {
    "code": "CFTH",
    "name": "Coalition for the Homeless",
    "status": "Current",
    "hidden": false,
    "lat": 40.708,
    "lng": -74.008,
    "mapOnly": true
  },
  {
    "code": "FHL",
    "name": "Friends of the High Line",
    "status": "Current",
    "hidden": false,
    "lat": 40.7397,
    "lng": -74.0081,
    "mapOnly": true
  },
  {
    "code": "GLBL",
    "name": "Global",
    "status": "Current",
    "hidden": false,
    "lat": 51.5106,
    "lng": -0.13,
    "mapOnly": true
  },
  {
    "code": "NAS-UK",
    "name": "National Audubon Society (UK)",
    "status": "Current",
    "hidden": false,
    "lat": 51.5072,
    "lng": -0.1276,
    "mapOnly": true
  },
  {
    "code": "NAS-MX",
    "name": "National Audubon Society (Mexico)",
    "status": "Current",
    "hidden": false,
    "lat": 19.4326,
    "lng": -99.1332,
    "mapOnly": true
  },
  {
    "code": "ICHK",
    "name": "Innerchapter Hong Kong",
    "status": "Current",
    "hidden": false,
    "lat": 22.2783,
    "lng": 114.1747,
    "mapOnly": true
  },
  {
    "code": "NAS-CO",
    "name": "National Audubon Society (Colombia)",
    "status": "Current",
    "hidden": false,
    "lat": 4.711,
    "lng": -74.0721,
    "mapOnly": true
  },
  {
    "code": "GOV",
    "name": "Governors Island",
    "status": "Former",
    "hidden": false,
    "lat": 40.6892,
    "lng": -74.0166,
    "mapOnly": true
  },
  {
    "code": "HRP",
    "name": "Hudson River Park",
    "status": "Current",
    "hidden": false,
    "lat": 40.7036,
    "lng": -74.0166,
    "mapOnly": true
  },
  {
    "code": "CHRIS",
    "name": "Chris",
    "status": "Current",
    "hidden": false,
    "lat": 40.7882,
    "lng": -73.9681,
    "mapOnly": true
  }
]
